[
    {
        "variant": "1 Normal Route",
        "destination": "DB North Plaza"
    },
    {
        "stops": [
            {
                "stop": "Sunny Bay Station",
                "info": [],
                "time": [],
                "trip_code": [],
                "latitude": 22.33267,
                "longitude": 114.02848
            },
            {
                "stop": "DB Tunnel Toll Plaza",
                "info": [],
                "time": [],
                "trip_code": [],
                "latitude": 22.30947,
                "longitude": 113.99099
            },
            {
                "stop": "Graceful Mansion",
                "info": [],
                "time": [],
                "trip_code": [],
                "latitude": 22.30796,
                "longitude": 114.01134
            },
            {
                "stop": "Neo Horizon",
                "info": [],
                "time": [],
                "trip_code": [],
                "latitude": 22.30746,
                "longitude": 114.01018
            },
            {
                "stop": "Greenland Court",
                "info": [],
                "time": [],
                "trip_code": [],
                "latitude": 22.30512,
                "longitude": 114.00991
            },
            {
                "stop": "Greenfield Court",
                "info": [],
                "time": [],
                "trip_code": [],
                "latitude": 22.30399,
                "longitude": 114.01033
            },
            {
                "stop": "Block 2, Siena One",
                "info": [],
                "time": [],
                "trip_code": [],
                "latitude": 22.30491,
                "longitude": 114.01078
            },
            {
                "stop": "Block 18, Siena One",
                "info": [],
                "time": [],
                "trip_code": [],
                "latitude": 22.30584,
                "longitude": 114.0107
            },
            {
                "stop": "Club Siena",
                "info": [],
                "time": [],
                "trip_code": [],
                "latitude": 22.30618,
                "longitude": 114.01525
            },
            {
                "stop": "DB North Plaza",
                "info": [],
                "time": [],
                "trip_code": [],
                "latitude": 22.3077,
                "longitude": 114.01629
            }
        ]
    }
]
